{
  "protocolSection": {
    "identificationModule": {
      "nctId": "NCT05636176",
      "orgStudyIdInfo": {
        "id": "EX6018-4915"
      },
      "secondaryIdInfos": [
        {
          "id": "U1111-1280-0810",
          "type": "OTHER",
          "domain": "World Health Organization (WHO)"
        },
        {
          "id": "2022-501939-16-00",
          "type": "OTHER",
          "domain": "European Medicines Agency (EMA)"
        },
        {
          "id": "jRCT2031230085",
          "type": "REGISTRY",
          "domain": "jRCT (Japan)"
        }
      ],
      "organization": {
        "fullName": "Novo Nordisk A/S",
        "class": "INDUSTRY"
      },
      "briefTitle": "A Research Study to Look at How Ziltivekimab Works Compared to Placebo in People With Heart Failure and Inflammation",
      "officialTitle": "Effects of Ziltivekimab Versus Placebo on Morbidity and Mortality in Patients With Heart Failure With Mildly Reduced or Preserved Ejection Fraction and Systemic Inflammation",
      "acronym": "HERMES"
    },
    "statusModule": {
      "statusVerifiedDate": "2026-02",
      "overallStatus": "RECRUITING",
      "expandedAccessInfo": {
        "hasExpandedAccess": false
      },
      "startDateStruct": {
        "date": "2023-05-08",
        "type": "ACTUAL"
      },
      "primaryCompletionDateStruct": {
        "date": "2027-07-02",
        "type": "ESTIMATED"
      },
      "completionDateStruct": {
        "date": "2027-07-02",
        "type": "ESTIMATED"
      },
      "studyFirstSubmitDate": "2022-11-23",
      "studyFirstSubmitQcDate": "2022-11-23",
      "studyFirstPostDateStruct": {
        "date": "2022-12-05",
        "type": "ACTUAL"
      },
      "lastUpdateSubmitDate": "2026-02-09",
      "lastUpdatePostDateStruct": {
        "date": "2026-02-10",
        "type": "ACTUAL"
      }
    },
    "sponsorCollaboratorsModule": {
      "responsibleParty": {
        "type": "SPONSOR"
      },
      "leadSponsor": {
        "name": "Novo Nordisk A/S",
        "class": "INDUSTRY"
      }
    },
    "oversightModule": {
      "oversightHasDmc": true,
      "isFdaRegulatedDrug": true,
      "isFdaRegulatedDevice": false
    },
    "descriptionModule": {
      "briefSummary": "This study will be done to see if ziltivekimab can be used to treat people living with heart failure and inflammation. Participants will either get ziltivekimab or placebo. Participants will get study medicine for once-monthly injections either in a pre-filled syringe to inject the study medicine into a skinfold or a pen-injector to inject the study medicine into flat skin. The study is expected to last for up to 4 years. Participants will have up to 20 clinic visits. Participants will have to use a study app on their phone to record and share information about all their injections of study medicine and to fill in questionnaires."
    },
    "conditionsModule": {
      "conditions": [
        "Heart Failure"
      ]
    },
    "designModule": {
      "studyType": "INTERVENTIONAL",
      "phases": [
        "PHASE3"
      ],
      "designInfo": {
        "allocation": "RANDOMIZED",
        "interventionModel": "PARALLEL",
        "primaryPurpose": "TREATMENT",
        "maskingInfo": {
          "masking": "QUADRUPLE",
          "whoMasked": [
            "PARTICIPANT",
            "CARE_PROVIDER",
            "INVESTIGATOR",
            "OUTCOMES_ASSESSOR"
          ]
        }
      },
      "enrollmentInfo": {
        "count": 5600,
        "type": "ESTIMATED"
      }
    },
    "armsInterventionsModule": {
      "armGroups": [
        {
          "label": "Ziltivekimab",
          "type": "EXPERIMENTAL",
          "description": "Participants will receive ziltivekimab subcutaneous (s.c.) injection once-monthly and added standard of care for up to 4 years.",
          "interventionNames": [
            "Drug: Ziltivekimab"
          ]
        },
        {
          "label": "Placebo",
          "type": "PLACEBO_COMPARATOR",
          "description": "Participants will receive ziltivekimab placebo s.c. injection once-monthly and added standard of care for up to 4 years.",
          "interventionNames": [
            "Drug: Placebo"
          ]
        }
      ],
      "interventions": [
        {
          "type": "DRUG",
          "name": "Ziltivekimab",
          "description": "Ziltivekimab subcutaneous (s.c.) injection in a pre-filled syringe or a pen-injector once-monthly for up to 4 years.",
          "armGroupLabels": [
            "Ziltivekimab"
          ]
        },
        {
          "type": "DRUG",
          "name": "Placebo",
          "description": "Ziltivekimab placebo s.c. injection in a pre-filled syringe or a pen-injector once-monthly for up to 4 years.",
          "armGroupLabels": [
            "Placebo"
          ]
        }
      ]
    },
    "outcomesModule": {
      "primaryOutcomes": [
        {
          "measure": "Time to First Occurrence of a Composite Heart Failure Endpoint Consisting of: Cardiovascular (CV) Death, Heart Failure (HF) Hospitalisation or Urgent HF Visit",
          "description": "Measured in months.",
          "timeFrame": "From randomisation (month 0) to end of study (up to 48 months)"
        }
      ],
      "secondaryOutcomes": [
        {
          "measure": "Time to First Occurrence of 4-point Expanded Composite HF Endpoint, a Composite Endpoint Consisting of: CV Death, HF Hospitalisation or Urgent HF Visit, Non-fatal Myocardial Infarction (MI), Non-fatal Stroke",
          "description": "Measured in months.",
          "timeFrame": "From randomisation (month 0) to end of study (up to 48 months)"
        },
        {
          "measure": "Number of CV Deaths, HF Hospitalisations or Urgent HF Visits (First and Recurrent)",
          "description": "Measured as count of event.",
          "timeFrame": "From randomisation (month 0) to end of study (up to 48 months)"
        },
        {
          "measure": "Time to Occurrence of CV Death",
          "description": "Measured in months.",
          "timeFrame": "From randomisation (month 0) to end of study (up to 48 months)"
        },
        {
          "measure": "Time to Occurrence of all-cause Death",
          "description": "Measured in months.",
          "timeFrame": "From randomisation (month 0) to end of study (up to 48 months)"
        },
        {
          "measure": "Time to First Occurrence of 4-point Expanded Composite HF Endpoint, a Composite Endpoint Consisting of: All-cause Death, HF Hospitalisation or Urgent HF Visit, Non-fatal MI, Non-fatal stroke",
          "description": "Measured in months.",
          "timeFrame": "From randomisation (month 0) to end of study (up to 48 months)"
        },
        {
          "measure": "Hierarchical Composite of: Time to All-cause Death, Number of HF Hospitalisations or Urgent HF Visits, Time to First HF Hospitalisation or Urgent HF Visit, difference of at least 5 in KCCQ clinical summary score change from baseline to 12 months",
          "description": "Kansas City Cardiomyopathy Questionnaire (KCCQ) measures Health-Related Quality of Life (HRQOL) and is a disease-specific health status instrument for HF. Score ranges from 0 to 100, with 0 as the lowest score and 100 as the highest score. Higher scores indicate better health status, fewer symptoms, and greater disease-specific health related quality of life, respectively. Measured as total wins for each treatment group.",
          "timeFrame": "From randomisation (month 0) to end of study (up to 48 months)"
        },
        {
          "measure": "Time to First Occurrence of HF Hospitalisation or Urgent HF Visit",
          "description": "Measured in months.",
          "timeFrame": "From randomisation (month 0) to end of study (up to 48 months)"
        },
        {
          "measure": "Number of Events of Atrial Fibrillation",
          "description": "Measured as count of event.",
          "timeFrame": "From randomisation (month 0) to end of study (up to 48 months)"
        },
        {
          "measure": "Change in KCCQ Clinical Summary Score",
          "description": "KCCQ measures Health-Related Quality of Life (HRQOL) and is a disease-specific health status instrument for HF. Score ranges from 0 to 100, with 0 as the lowest score and 100 as the highest score. Higher scores indicate better health status, fewer symptoms, and greater disease-specific health related quality of life, respectively. Measured as score.",
          "timeFrame": "From randomisation (month 0) to 12 months"
        },
        {
          "measure": "Improvement of 5 Points or More in KCCQ Clinical Summary Score (Yes/No)",
          "description": "Kansas City Cardiomyopathy Questionnaire (KCCQ) measures Health-Related Quality of Life (HRQOL) and is a disease-specific health status instrument for HF. Score ranges from 0 to 100, with 0 as the lowest score and 100 as the highest score. Higher scores indicate better health status, fewer symptoms, and greater disease-specific health related quality of life, respectively. Measured as count of participant.",
          "timeFrame": "From randomisation (month 0) to 12 months"
        },
        {
          "measure": "Improvement of 10 Points or More in KCCQ Clinical Summary Score (Yes/No)",
          "description": "Kansas City Cardiomyopathy Questionnaire (KCCQ) measures Health-Related Quality of Life (HRQOL) and is a disease-specific health status instrument for HF. Score ranges from 0 to 100, with 0 as the lowest score and 100 as the highest score. Higher scores indicate better health status, fewer symptoms, and greater disease-specific health related quality of life, respectively. Measured as count of participant.",
          "timeFrame": "From randomisation (month 0) to 12 months"
        },
        {
          "measure": "Improvement in New York Heart Association (Classification) [NYHA Class] (Yes/No)",
          "description": "NEW YORK HEART ASSOCIATION CLASSIFICATION (NYHA) Class I: Participant with cardiac disease but without resulting limitations of physical activity.\n\nClass II: Participants with cardiac disease resulting in slight limitation of physical activity.\n\nClass III: Participants with cardiac disease resulting in marked limitation of physical activity.\n\nClass IV: Participants with cardiac disease resulting in inability to carry on any physical activity without discomfort.\n\nMeasured as count of participant.",
          "timeFrame": "From randomisation (month 0) to 12 months"
        },
        {
          "measure": "Time to First Occurrence of a Composite Chronic Kidney Disease (CKD) Endpoint Consisting of: CV death, Onset of Persistent Greater Than Equal To 40 Percentage Reduction in eGFR (CKD- EPI) compared with baseline; Kidney failure",
          "description": "eGFR = estimated glomerular filtration rate; CKD-EPI = chronic kidney disease - epidemiology collaboration. Kidney failure defined as: death from kidney failure, onset of persistent eGFR less than 15 milliliters per minute (mL/min)/1.73 meter square (m\\^2) (CKD-EPI), initiation of chronic kidney replacement therapy (maintenance dialysis or kidney transplantation). Measured in months.",
          "timeFrame": "From randomisation (month 0) to end of study (up to 48 months)"
        },
        {
          "measure": "Change in Estimated Glomerular Filtration Rate (eGFR) (Chronic Kidney Disease - Epidemiology Collaboration [CKD-EPI])",
          "description": "Measured as mL/min/1.73 m\\^2.",
          "timeFrame": "From randomisation (month 0) to 12 months"
        },
        {
          "measure": "Annual Rate of Change in eGFR (CKD-EPI) (Total eGFR Slope)",
          "description": "Measured as mL/min/1.73 m\\^2/year.",
          "timeFrame": "From randomisation (month 0) to end of study (up to 48 months)"
        },
        {
          "measure": "Number of Hospitalisations With Infection as Primary Cause or Death Due to Infection",
          "description": "Measured as count of event.",
          "timeFrame": "From randomisation (month 0) to end of study (up to 48 months)"
        },
        {
          "measure": "Change in High-sensitivity C-reactive Protein (hs-CRP)",
          "description": "Measured as ratio to baseline.",
          "timeFrame": "From randomisation (month 0) to 12 months"
        },
        {
          "measure": "Change in N-terminal-pro-brain Natriuretic Peptide (NT-proBNP)",
          "description": "Measured as ratio to baseline.",
          "timeFrame": "From randomisation (month 0) to 12 months"
        }
      ]
    },
    "eligibilityModule": {
      "eligibilityCriteria": "Inclusion Criteria:\n\n* Serum high-sensitivity C-reactive protein (hs-CRP) greater than equal to 2 milligrams per liter (mg/L) at screening (visit 1) Disease specific - cardiovascular\n* At least one of the following:\n\n  1. N-terminal-pro-brain natriuretic peptide (NT-proBNP) greater than equal to 300 picograms per milliliter (pg/mL) at screening (Visit 1) for patients without ongoing atrial fibrillation/flutter. If ongoing atrial fibrillation/flutter at screening (visit 1), NTproBNP must be greater than equal to 600 pg/mL. Note that the screening electrocardiogram (ECG) must be obtained the same day as sampling for NT-proBNP.\n  2. Hospitalisation or urgent/unplanned visit with a primary diagnosis of decompensated heart failure which required intravenous loop diuretic treatment, within the last 9 months prior to screening (visit 1) in combination with NT-proBNP greater than equal to 200 pg/mL at screening (Visit 1) for patients without ongoing atrial fibrillation/flutter. If ongoing atrial fibrillation/flutter at screening (visit 1), NT-proBNP must be greater than equal to 600 pg/mL.\n* Diagnosis of heart failure (New York Heart Association \\[classification\\] \\[NYHA\\] Class II-IV).\n* Left ventricular ejection fraction (LVEF) greater than 40 percentage (%) documented by echocardiography within 12 months prior to or at screening (visit 1). The LVEF must be documented in medical records and the most recent measurement must be used to determine eligibility with no interim event signalling potential deterioration in ejection fraction (e.g., myocardial infarction \\[MI\\] or heart failure \\[HF\\] hospitalisation).\n* Structural heart disease and/or functional heart disease documented by echocardiography within 12 months prior to or at screening (visit 1) showing at least one of the following:\n* Left atrial (LA) volume index greater than 34 milliliter per meter square (mL/m\\^2).\n* LA diameter greater than equal to 3.8 centimeter (cm).\n* LA length greater than equal to 5.0 cm.\n* LA area greater than equal to 20 cm square.\n* LA volume greater than equal to 55 milliters (mL).\n* Intraventricular septal thickness greater than equal to 1.1 cm.\n* Posterior wall thickness greater than equal to 1.1 cm.\n* Left ventricular (LV) mass index greater than equal to 115 grams per meter square (g⁄m\\^2 ) in men or greater than equal to 95 g⁄m\\^2 in women.\n* E/e' (mean septal and lateral) greater than equal to 10.\n* e' (mean septal and lateral) less than 9 centimeter per second (cm/s).\n* No heart failure hospitalisations or urgent heart failure visits between screening (visit 1) and randomisation (visit 2).\n\nExclusion Criteria:\n\nMedical conditions - cardiovascular\n\n* Myocardial infarction, stroke, unstable angina pectoris, transient ischaemic attack, or heart failure hospitalisation, within 30 days prior to screening (visit 1).\n* Systolic blood pressure greater than equal to 180 millimeters of mercury (mmHg) at screening (visit 1). If the systolic blood pressure is 160-179 mmHg, the patient should be receiving greater than equal to 3 antihypertensive drugs. (Note: Potential participants may be retested for this criterion within the visit window and without rescreening, at the discretion of the investigator).\n* Heart rate above 110 or below 40 beats per minute as evaluated on the electrocardiogram (ECG) performed at screening (visit 1) (Note: Potential participants may be retested for this criterion within the visit window and without rescreening, at the discretion of the investigator).\n* Planned coronary, carotid or peripheral artery revascularisation known during the screening period (visit 1). (Note: Planned coronary angiogram is not exclusionary).\n* Planned cardiac device or atrial flutter/atrial fibrillation ablation procedure known during the screening period (visit 1).\n* Major cardiac surgical, non-cardiac surgical, or major endoscopic procedure (thoracoscopic or laparoscopic) within the past 60 days prior to randomisation (visit 2) or any major surgical procedure planned at the time of randomisation (visit 2).\n* Heart failure due to infiltrative cardiomyopathy (e.g., sarcoid, amyloid), arrhythmogenic right ventricular cardiomyopathy, Takutsubo cardiomyopathy, genetic hypertrophic cardiomyopathy or obstructive cardiomyopathy, active myocarditis, constrictive pericarditis, cardiac tamponade, uncorrected more than moderate primary valve disease.\n* Primary pulmonary hypertension, chronic pulmonary embolism, severe pulmonary disease including COPD.\n* Any other condition judged by the investigator that could account for heart failure symptoms and signs (e.g., anaemia, hypothyroidism).\n\nMedical conditions - infections/immunosuppression\n\n\\- Clinical evidence of, or suspicion of, active infection at the discretion of the investigator.",
      "healthyVolunteers": false,
      "sex": "ALL",
      "minimumAge": "18 Years",
      "stdAges": [
        "ADULT",
        "OLDER_ADULT"
      ]
    },
    "contactsLocationsModule": {
      "centralContacts": [
        {
          "name": "Novo Nordisk",
          "role": "CONTACT",
          "phone": "(+1) 866-867-7178",
          "email": "clinicaltrials@novonordisk.com"
        }
      ],
      "overallOfficials": [
        {
          "name": "Clinical Transparency (dept. 2834)",
          "affiliation": "Novo Nordisk A/S",
          "role": "STUDY_DIRECTOR"
        }
      ],
      "locations": [
        {
          "facility": "Advanced Cardiovascular, LLC",
          "status": "RECRUITING",
          "city": "Alexander City",
          "state": "Alabama",
          "zip": "35010",
          "country": "United States",
          "geoPoint": {
            "lat": 32.94401,
            "lon": -85.95385
          }
        },
        {
          "facility": "Eastern Shore Rsrch Inst, LLC",
          "status": "RECRUITING",
          "city": "Fairhope",
          "state": "Alabama",
          "zip": "36532",
          "country": "United States",
          "geoPoint": {
            "lat": 30.52297,
            "lon": -87.90333
          }
        },
        {
          "facility": "Heart Center Rsrch_Hunstville",
          "status": "RECRUITING",
          "city": "Huntsville",
          "state": "Alabama",
          "zip": "35801",
          "country": "United States",
          "geoPoint": {
            "lat": 34.7304,
            "lon": -86.58594
          }
        },
        {
          "facility": "Banner University Medical Ctr",
          "status": "COMPLETED",
          "city": "Phoenix",
          "state": "Arizona",
          "zip": "85006",
          "country": "United States",
          "geoPoint": {
            "lat": 33.44838,
            "lon": -112.07404
          }
        },
        {
          "facility": "Banner University Medical Ctr",
          "status": "NOT_YET_RECRUITING",
          "city": "Phoenix",
          "state": "Arizona",
          "zip": "85006",
          "country": "United States",
          "geoPoint": {
            "lat": 33.44838,
            "lon": -112.07404
          }
        },
        {
          "facility": "Cardiology & Medicine Clinic",
          "status": "COMPLETED",
          "city": "Little Rock",
          "state": "Arkansas",
          "zip": "72204",
          "country": "United States",
          "geoPoint": {
            "lat": 34.74648,
            "lon": -92.28959
          }
        },
        {
          "facility": "InvivoCure -2",
          "status": "RECRUITING",
          "city": "Alhambra",
          "state": "California",
          "zip": "91801",
          "country": "United States",
          "geoPoint": {
            "lat": 34.09529,
            "lon": -118.12701
          }
        },
        {
          "facility": "National Heart Institute Cal",
          "status": "RECRUITING",
          "city": "Beverly Hills",
          "state": "California",
          "zip": "90211",
          "country": "United States",
          "geoPoint": {
            "lat": 34.07362,
            "lon": -118.40036
          }
        },
        {
          "facility": "Valley Clinical Trials",
          "status": "RECRUITING",
          "city": "Covina",
          "state": "California",
          "zip": "91723",
          "country": "United States",
          "geoPoint": {
            "lat": 34.09001,
            "lon": -117.89034
          }
        },
        {
          "facility": "Scripps Memorial Hospital La Jolla",
          "status": "COMPLETED",
          "city": "La Jolla",
          "state": "California",
          "zip": "90237",
          "country": "United States",
          "geoPoint": {
            "lat": 32.84727,
            "lon": -117.2742
          }
        },
        {
          "facility": "Purushotham & Akther Kotha MD, inc.",
          "status": "RECRUITING",
          "city": "La Mesa",
          "state": "California",
          "zip": "91942",
          "country": "United States",
          "geoPoint": {
            "lat": 32.76783,
            "lon": -117.02308
          }
        },
        {
          "facility": "VA Loma Linda Hlthcr Sys",
          "status": "RECRUITING",
          "city": "Loma Linda",
          "state": "California",
          "zip": "92357",
          "country": "United States",
          "geoPoint": {
            "lat": 34.04835,
            "lon": -117.26115
          }
        },
        {
          "facility": "Biopharma Clinical Research Services, LLC",
          "status": "RECRUITING",
          "city": "Los Angeles",
          "state": "California",
          "zip": "90035",
          "country": "United States",
          "geoPoint": {
            "lat": 34.05223,
            "lon": -118.24368
          }
        },
        {
          "facility": "VA Greater Los Angeles Hlthcare System",
          "status": "RECRUITING",
          "city": "Los Angeles",
          "state": "California",
          "zip": "90073",
          "country": "United States",
          "geoPoint": {
            "lat": 34.05223,
            "lon": -118.24368
          }
        },
        {
          "facility": "VAGrtrLosAngelesHlthcareSystem",
          "status": "RECRUITING",
          "city": "Los Angeles",
          "state": "California",
          "zip": "90073",
          "country": "United States",
          "geoPoint": {
            "lat": 34.05223,
            "lon": -118.24368
          }
        },
        {
          "facility": "Valley Clinical Trials, Inc.",
          "status": "RECRUITING",
          "city": "Northridge",
          "state": "California",
          "zip": "91325",
          "country": "United States",
          "geoPoint": {
            "lat": 34.22834,
            "lon": -118.53675
          }
        },
        {
          "facility": "UCI Health",
          "status": "COMPLETED",
          "city": "Orange",
          "state": "California",
          "zip": "92868",
          "country": "United States",
          "geoPoint": {
            "lat": 33.78779,
            "lon": -117.85311
          }
        },
        {
          "facility": "Stanford Univ School of Med",
          "status": "COMPLETED",
          "city": "Palo Alto",
          "state": "California",
          "zip": "94304",
          "country": "United States",
          "geoPoint": {
            "lat": 37.44188,
            "lon": -122.14302
          }
        },
        {
          "facility": "San Diego Cardiac Center",
          "status": "RECRUITING",
          "city": "San Diego",
          "state": "California",
          "zip": "92123",
          "country": "United States",
          "geoPoint": {
            "lat": 32.71571,
            "lon": -117.16472
          }
        },
        {
          "facility": "North America Research Institute",
          "status": "RECRUITING",
          "city": "San Dimas",
          "state": "California",
          "zip": "91773",
          "country": "United States",
          "geoPoint": {
            "lat": 34.10668,
            "lon": -117.80673
          }
        },
        {
          "facility": "Manshadi Heart Institute",
          "status": "RECRUITING",
          "city": "Stockton",
          "state": "California",
          "zip": "95204",
          "country": "United States",
          "geoPoint": {
            "lat": 37.9577,
            "lon": -121.29078
          }
        },
        {
          "facility": "Lundquist Inst-Biomed Innovtn",
          "status": "RECRUITING",
          "city": "Torrance",
          "state": "California",
          "zip": "90502",
          "country": "United States",
          "geoPoint": {
            "lat": 33.83585,
            "lon": -118.34063
          }
        },
        {
          "facility": "InvivoCure",
          "status": "RECRUITING",
          "city": "Van Nuys",
          "state": "California",
          "zip": "91405",
          "country": "United States",
          "geoPoint": {
            "lat": 34.18667,
            "lon": -118.44897
          }
        },
        {
          "facility": "Rocky Mountain Regional VAMC",
          "status": "RECRUITING",
          "city": "Aurora",
          "state": "Colorado",
          "zip": "80045",
          "country": "United States",
          "geoPoint": {
            "lat": 39.72943,
            "lon": -104.83192
          }
        },
        {
          "facility": "InvivoCure -2",
          "status": "COMPLETED",
          "city": "Denver",
          "state": "Colorado",
          "zip": "80012",
          "country": "United States",
          "geoPoint": {
            "lat": 39.73915,
            "lon": -104.9847
          }
        },
        {
          "facility": "S Denver Cardiology Associates",
          "status": "COMPLETED",
          "city": "Littleton",
          "state": "Colorado",
          "zip": "80120",
          "country": "United States",
          "geoPoint": {
            "lat": 39.61332,
            "lon": -105.01665
          }
        },
        {
          "facility": "Bridgeport Hospital",
          "status": "RECRUITING",
          "city": "Bridgeport",
          "state": "Connecticut",
          "zip": "06610",
          "country": "United States",
          "geoPoint": {
            "lat": 41.17923,
            "lon": -73.18945
          }
        },
        {
          "facility": "Cardiology Associates of Fairfield County",
          "status": "RECRUITING",
          "city": "Stamford",
          "state": "Connecticut",
          "zip": "06905",
          "country": "United States",
          "geoPoint": {
            "lat": 41.05343,
            "lon": -73.53873
          }
        },
        {
          "facility": "Pioneer Clinical Studies-Coral Gables",
          "status": "RECRUITING",
          "city": "Coral Gables",
          "state": "Florida",
          "zip": "33134",
          "country": "United States",
          "geoPoint": {
            "lat": 25.72149,
            "lon": -80.26838
          }
        },
        {
          "facility": "Nature Coast Clin Rsrch_Crystal River",
          "status": "RECRUITING",
          "city": "Crystal River",
          "state": "Florida",
          "zip": "34429",
          "country": "United States",
          "geoPoint": {
            "lat": 28.90248,
            "lon": -82.5926
          }
        },
        {
          "facility": "Integrative Research Assoc Inc",
          "status": "COMPLETED",
          "city": "Fort Lauderdale",
          "state": "Florida",
          "zip": "33312",
          "country": "United States",
          "geoPoint": {
            "lat": 26.12231,
            "lon": -80.14338
          }
        },
        {
          "facility": "New Generation of Medical Research",
          "status": "RECRUITING",
          "city": "Hialeah",
          "state": "Florida",
          "zip": "33016",
          "country": "United States",
          "geoPoint": {
            "lat": 25.8576,
            "lon": -80.27811
          }
        },
        {
          "facility": "New Generation of Medical Research",
          "status": "NOT_YET_RECRUITING",
          "city": "Hialeah",
          "state": "Florida",
          "zip": "33016",
          "country": "United States",
          "geoPoint": {
            "lat": 25.8576,
            "lon": -80.27811
          }
        },
        {
          "facility": "Memorial Region Hosp_Hollywood",
          "status": "RECRUITING",
          "city": "Hollywood",
          "state": "Florida",
          "zip": "33021",
          "country": "United States",
          "geoPoint": {
            "lat": 26.0112,
            "lon": -80.14949
          }
        },
        {
          "facility": "E Coast Inst for Rsrch LLC_Jacksonville",
          "status": "COMPLETED",
          "city": "Jacksonville",
          "state": "Florida",
          "zip": "32204",
          "country": "United States",
          "geoPoint": {
            "lat": 30.33218,
            "lon": -81.65565
          }
        },
        {
          "facility": "Jacksonville Ctr for Clin Res",
          "status": "RECRUITING",
          "city": "Jacksonville",
          "state": "Florida",
          "zip": "32216",
          "country": "United States",
          "geoPoint": {
            "lat": 30.33218,
            "lon": -81.65565
          }
        },
        {
          "facility": "Baptist Health Research Institute",
          "status": "RECRUITING",
          "city": "Jacksonville",
          "state": "Florida",
          "zip": "32258",
          "country": "United States",
          "geoPoint": {
            "lat": 30.33218,
            "lon": -81.65565
          }
        },
        {
          "facility": "Baptist Health South Florida",
          "status": "RECRUITING",
          "city": "Miami",
          "state": "Florida",
          "zip": "33173",
          "country": "United States",
          "geoPoint": {
            "lat": 25.77427,
            "lon": -80.19366
          }
        },
        {
          "facility": "NCH Research Institute",
          "status": "RECRUITING",
          "city": "Naples",
          "state": "Florida",
          "zip": "34102",
          "country": "United States",
          "geoPoint": {
            "lat": 26.14234,
            "lon": -81.79596
          }
        },
        {
          "facility": "Amavita Research Services, LLC",
          "status": "RECRUITING",
          "city": "North Miami Beach",
          "state": "Florida",
          "zip": "33169",
          "country": "United States",
          "geoPoint": {
            "lat": 25.93315,
            "lon": -80.16255
          }
        },
        {
          "facility": "Ocala Cardiovascular Research",
          "status": "RECRUITING",
          "city": "Ocala",
          "state": "Florida",
          "zip": "34471",
          "country": "United States",
          "geoPoint": {
            "lat": 29.1872,
            "lon": -82.14009
          }
        },
        {
          "facility": "Ormond Beach Clinical Research",
          "status": "RECRUITING",
          "city": "Ormond Beach",
          "state": "Florida",
          "zip": "32174",
          "country": "United States",
          "geoPoint": {
            "lat": 29.28581,
            "lon": -81.05589
          }
        },
        {
          "facility": "St Johns Ctr Clin Rsch-St. Aug",
          "status": "RECRUITING",
          "city": "Saint Augustine",
          "state": "Florida",
          "zip": "32086",
          "country": "United States",
          "geoPoint": {
            "lat": 29.89469,
            "lon": -81.31452
          }
        },
        {
          "facility": "Cardio Partners Clin Res Inst",
          "status": "RECRUITING",
          "city": "Wellington",
          "state": "Florida",
          "zip": "33449",
          "country": "United States",
          "geoPoint": {
            "lat": 26.65868,
            "lon": -80.24144
          }
        },
        {
          "facility": "Winter Haven Hospital",
          "status": "RECRUITING",
          "city": "Winter Haven",
          "state": "Florida",
          "zip": "33881",
          "country": "United States",
          "geoPoint": {
            "lat": 28.02224,
            "lon": -81.73286
          }
        },
        {
          "facility": "Guardian Research Org LLC",
          "status": "RECRUITING",
          "city": "Winter Park",
          "state": "Florida",
          "zip": "32792",
          "country": "United States",
          "geoPoint": {
            "lat": 28.6,
            "lon": -81.33924
          }
        },
        {
          "facility": "Morehouse School of Medicine",
          "status": "RECRUITING",
          "city": "Atlanta",
          "state": "Georgia",
          "zip": "30310",
          "country": "United States",
          "geoPoint": {
            "lat": 33.749,
            "lon": -84.38798
          }
        },
        {
          "facility": "Emory University School of Medicine_Atlanta",
          "status": "RECRUITING",
          "city": "Atlanta",
          "state": "Georgia",
          "zip": "30322",
          "country": "United States",
          "geoPoint": {
            "lat": 33.749,
            "lon": -84.38798
          }
        },
        {
          "facility": "NSC Research, Inc",
          "status": "RECRUITING",
          "city": "Johns Creek",
          "state": "Georgia",
          "zip": "30024",
          "country": "United States",
          "geoPoint": {
            "lat": 34.02893,
            "lon": -84.19858
          }
        },
        {
          "facility": "GA Arrhythmia Cons & Rsch Inst",
          "status": "RECRUITING",
          "city": "Macon",
          "state": "Georgia",
          "zip": "31201",
          "country": "United States",
          "geoPoint": {
            "lat": 32.84069,
            "lon": -83.6324
          }
        },
        {
          "facility": "The Queen's Medical Center",
          "status": "COMPLETED",
          "city": "Honolulu",
          "state": "Hawaii",
          "zip": "96817",
          "country": "United States",
          "geoPoint": {
            "lat": 21.30694,
            "lon": -157.85833
          }
        },
        {
          "facility": "St. Luke's Idaho Cardiology Associates",
          "status": "RECRUITING",
          "city": "Meridian",
          "state": "Idaho",
          "zip": "83642",
          "country": "United States",
          "geoPoint": {
            "lat": 43.61211,
            "lon": -116.39151
          }
        },
        {
          "facility": "Endeavor Health Clinical Operations-NCH",
          "status": "COMPLETED",
          "city": "Arlington Heights",
          "state": "Illinois",
          "zip": "60005",
          "country": "United States",
          "geoPoint": {
            "lat": 42.08836,
            "lon": -87.98063
          }
        },
        {
          "facility": "Advocate Good Samaritan",
          "status": "COMPLETED",
          "city": "Downers Grove",
          "state": "Illinois",
          "zip": "60515",
          "country": "United States",
          "geoPoint": {
            "lat": 41.80892,
            "lon": -88.01117
          }
        },
        {
          "facility": "Chicago Medical Research LLC",
          "status": "RECRUITING",
          "city": "Hazel Crest",
          "state": "Illinois",
          "zip": "60429",
          "country": "United States",
          "geoPoint": {
            "lat": 41.5717,
            "lon": -87.69449
          }
        },
        {
          "facility": "Midwest Cardiovascular Institute",
          "status": "RECRUITING",
          "city": "Naperville",
          "state": "Illinois",
          "zip": "60540",
          "country": "United States",
          "geoPoint": {
            "lat": 41.78586,
            "lon": -88.14729
          }
        },
        {
          "facility": "OSF HealthCare_Cardiovasc Inst",
          "status": "RECRUITING",
          "city": "Peoria",
          "state": "Illinois",
          "zip": "61614",
          "country": "United States",
          "geoPoint": {
            "lat": 40.69365,
            "lon": -89.58899
          }
        },
        {
          "facility": "Methodist Medical Center of Illinois",
          "status": "RECRUITING",
          "city": "Peoria",
          "state": "Illinois",
          "zip": "61636",
          "country": "United States",
          "geoPoint": {
            "lat": 40.69365,
            "lon": -89.58899
          }
        },
        {
          "facility": "Midwest Cardiovascu Rsrch Foundation",
          "status": "RECRUITING",
          "city": "Elkhart",
          "state": "Indiana",
          "zip": "46514",
          "country": "United States",
          "geoPoint": {
            "lat": 41.68199,
            "lon": -85.97667
          }
        },
        {
          "facility": "Asha Clinical Rsch-Munster, LLC",
          "status": "RECRUITING",
          "city": "Hammond",
          "state": "Indiana",
          "zip": "46324",
          "country": "United States",
          "geoPoint": {
            "lat": 41.58337,
            "lon": -87.50004
          }
        },
        {
          "facility": "Franciscan Network-IN Heart PHY",
          "status": "COMPLETED",
          "city": "Indianapolis",
          "state": "Indiana",
          "zip": "46237",
          "country": "United States",
          "geoPoint": {
            "lat": 39.76838,
            "lon": -86.15804
          }
        },
        {
          "facility": "Franciscan Network-IN Heart PHY",
          "status": "RECRUITING",
          "city": "Indianapolis",
          "state": "Indiana",
          "zip": "46237",
          "country": "United States",
          "geoPoint": {
            "lat": 39.76838,
            "lon": -86.15804
          }
        },
        {
          "facility": "Witham Health Services",
          "status": "COMPLETED",
          "city": "Lebanon",
          "state": "Indiana",
          "zip": "46052",
          "country": "United States",
          "geoPoint": {
            "lat": 40.04837,
            "lon": -86.46917
          }
        },
        {
          "facility": "Cardiovascular Rsrch of NW_IN",
          "status": "RECRUITING",
          "city": "Munster",
          "state": "Indiana",
          "zip": "46321",
          "country": "United States",
          "geoPoint": {
            "lat": 41.56448,
            "lon": -87.51254
          }
        },
        {
          "facility": "Reid Physician Associates",
          "status": "RECRUITING",
          "city": "Richmond",
          "state": "Indiana",
          "zip": "47374",
          "country": "United States",
          "geoPoint": {
            "lat": 39.82894,
            "lon": -84.89024
          }
        },
        {
          "facility": "University Of Iowa Hospitals and Clinics",
          "status": "RECRUITING",
          "city": "Iowa City",
          "state": "Iowa",
          "zip": "52242",
          "country": "United States",
          "geoPoint": {
            "lat": 41.66113,
            "lon": -91.53017
          }
        },
        {
          "facility": "Midwest Heart & Vasc Spec",
          "status": "RECRUITING",
          "city": "Overland Park",
          "state": "Kansas",
          "zip": "66211",
          "country": "United States",
          "geoPoint": {
            "lat": 38.98223,
            "lon": -94.67079
          }
        },
        {
          "facility": "Midwest Heart & Vasc Spec",
          "status": "NOT_YET_RECRUITING",
          "city": "Overland Park",
          "state": "Kansas",
          "zip": "66211",
          "country": "United States",
          "geoPoint": {
            "lat": 38.98223,
            "lon": -94.67079
          }
        },
        {
          "facility": "Baptist Health Hardin",
          "status": "RECRUITING",
          "city": "Elizabethtown",
          "state": "Kentucky",
          "zip": "42701",
          "country": "United States",
          "geoPoint": {
            "lat": 37.69395,
            "lon": -85.85913
          }
        },
        {
          "facility": "The Research Group of Lexington LLC",
          "status": "COMPLETED",
          "city": "Lexington",
          "state": "Kentucky",
          "zip": "40503",
          "country": "United States",
          "geoPoint": {
            "lat": 37.98869,
            "lon": -84.47772
          }
        },
        {
          "facility": "University Of Louisville",
          "status": "COMPLETED",
          "city": "Louisville",
          "state": "Kentucky",
          "zip": "40202",
          "country": "United States",
          "geoPoint": {
            "lat": 38.25424,
            "lon": -85.75941
          }
        },
        {
          "facility": "Robley Rex VA Medical Center",
          "status": "COMPLETED",
          "city": "Louisville",
          "state": "Kentucky",
          "zip": "40206",
          "country": "United States",
          "geoPoint": {
            "lat": 38.25424,
            "lon": -85.75941
          }
        },
        {
          "facility": "Baptist Health Louisville",
          "status": "RECRUITING",
          "city": "Louisville",
          "state": "Kentucky",
          "zip": "40207",
          "country": "United States",
          "geoPoint": {
            "lat": 38.25424,
            "lon": -85.75941
          }
        },
        {
          "facility": "Cambridge Medical Trials",
          "status": "COMPLETED",
          "city": "Alexandria",
          "state": "Louisiana",
          "zip": "71301",
          "country": "United States",
          "geoPoint": {
            "lat": 31.31129,
            "lon": -92.44514
          }
        },
        {
          "facility": "LOUISIANA HEART Center",
          "status": "RECRUITING",
          "city": "Bogalusa",
          "state": "Louisiana",
          "zip": "70427",
          "country": "United States",
          "geoPoint": {
            "lat": 30.79102,
            "lon": -89.84869
          }
        },
        {
          "facility": "Heart Clinic of Hammond",
          "status": "RECRUITING",
          "city": "Hammond",
          "state": "Louisiana",
          "zip": "70403",
          "country": "United States",
          "geoPoint": {
            "lat": 30.50463,
            "lon": -90.46293
          }
        },
        {
          "facility": "University Medical Center New Orleans",
          "status": "RECRUITING",
          "city": "New Orleans",
          "state": "Louisiana",
          "zip": "70112",
          "country": "United States",
          "geoPoint": {
            "lat": 29.95465,
            "lon": -90.07507
          }
        },
        {
          "facility": "Ascension Saint Agnes Heart Ca",
          "status": "RECRUITING",
          "city": "Baltimore",
          "state": "Maryland",
          "zip": "21229",
          "country": "United States",
          "geoPoint": {
            "lat": 39.29038,
            "lon": -76.61219
          }
        },
        {
          "facility": "Johns Hopkins University_Baltimore",
          "status": "RECRUITING",
          "city": "Baltimore",
          "state": "Maryland",
          "zip": "21287",
          "country": "United States",
          "geoPoint": {
            "lat": 39.29038,
            "lon": -76.61219
          }
        },
        {
          "facility": "Capitol Cardiology Assoc_Lanham",
          "status": "RECRUITING",
          "city": "Lanham",
          "state": "Maryland",
          "zip": "20706",
          "country": "United States",
          "geoPoint": {
            "lat": 38.96875,
            "lon": -76.8634
          }
        },
        {
          "facility": "MD Medical Research",
          "status": "RECRUITING",
          "city": "Oxon Hill",
          "state": "Maryland",
          "zip": "20745",
          "country": "United States",
          "geoPoint": {
            "lat": 38.80345,
            "lon": -76.9897
          }
        },
        {
          "facility": "Pentucket Medical Associates",
          "status": "RECRUITING",
          "city": "Haverhill",
          "state": "Massachusetts",
          "zip": "01830",
          "country": "United States",
          "geoPoint": {
            "lat": 42.7762,
            "lon": -71.07728
          }
        },
        {
          "facility": "University of Michigan Medicine",
          "status": "COMPLETED",
          "city": "Ann Arbor",
          "state": "Michigan",
          "zip": "48109",
          "country": "United States",
          "geoPoint": {
            "lat": 42.27756,
            "lon": -83.74088
          }
        },
        {
          "facility": "Detroit Med Center-Wayne State",
          "status": "RECRUITING",
          "city": "Detroit",
          "state": "Michigan",
          "zip": "48201",
          "country": "United States",
          "geoPoint": {
            "lat": 42.33143,
            "lon": -83.04575
          }
        },
        {
          "facility": "Henry Ford Hlth System_Detroit",
          "status": "COMPLETED",
          "city": "Detroit",
          "state": "Michigan",
          "zip": "48202",
          "country": "United States",
          "geoPoint": {
            "lat": 42.33143,
            "lon": -83.04575
          }
        },
        {
          "facility": "Elite Research Center",
          "status": "COMPLETED",
          "city": "Flint",
          "state": "Michigan",
          "zip": "48532",
          "country": "United States",
          "geoPoint": {
            "lat": 43.01253,
            "lon": -83.68746
          }
        },
        {
          "facility": "Healthy Heart Cardiology",
          "status": "COMPLETED",
          "city": "Grand Rapids",
          "state": "Michigan",
          "zip": "49546",
          "country": "United States",
          "geoPoint": {
            "lat": 42.96336,
            "lon": -85.66809
          }
        },
        {
          "facility": "Trinity Health Michigan Heart",
          "status": "RECRUITING",
          "city": "Ypsilanti",
          "state": "Michigan",
          "zip": "48197",
          "country": "United States",
          "geoPoint": {
            "lat": 42.24115,
            "lon": -83.61299
          }
        },
        {
          "facility": "Fairview Health Services",
          "status": "RECRUITING",
          "city": "Maplewood",
          "state": "Minnesota",
          "zip": "55109",
          "country": "United States",
          "geoPoint": {
            "lat": 44.95302,
            "lon": -92.99522
          }
        },
        {
          "facility": "Minneapolis VA Health Care Sys",
          "status": "RECRUITING",
          "city": "Minneapolis",
          "state": "Minnesota",
          "zip": "55417",
          "country": "United States",
          "geoPoint": {
            "lat": 44.97997,
            "lon": -93.26384
          }
        },
        {
          "facility": "Hawthorne Health",
          "status": "NOT_YET_RECRUITING",
          "city": "Diamondhead",
          "state": "Mississippi",
          "zip": "39525",
          "country": "United States",
          "geoPoint": {
            "lat": 30.39464,
            "lon": -89.36394
          }
        },
        {
          "facility": "Cardiolg Assoc Rsch LLC_Tupelo",
          "status": "COMPLETED",
          "city": "Tupelo",
          "state": "Mississippi",
          "zip": "38801",
          "country": "United States",
          "geoPoint": {
            "lat": 34.25807,
            "lon": -88.70464
          }
        },
        {
          "facility": "St Louis Heart & Vascular, P.C.",
          "status": "RECRUITING",
          "city": "St Louis",
          "state": "Missouri",
          "zip": "63136",
          "country": "United States",
          "geoPoint": {
            "lat": 38.62727,
            "lon": -90.19789
          }
        },
        {
          "facility": "Logan Health Research",
          "status": "COMPLETED",
          "city": "Kalispell",
          "state": "Montana",
          "zip": "59901",
          "country": "United States",
          "geoPoint": {
            "lat": 48.19579,
            "lon": -114.31291
          }
        },
        {
          "facility": "Univ. of Nebraska Medical Center_Omaha",
          "status": "COMPLETED",
          "city": "Omaha",
          "state": "Nebraska",
          "zip": "68198",
          "country": "United States",
          "geoPoint": {
            "lat": 41.25626,
            "lon": -95.94043
          }
        },
        {
          "facility": "Univ. of Nebraska Medical Center_Omaha",
          "status": "RECRUITING",
          "city": "Omaha",
          "state": "Nebraska",
          "zip": "68198",
          "country": "United States",
          "geoPoint": {
            "lat": 41.25626,
            "lon": -95.94043
          }
        },
        {
          "facility": "Palm Research Center Inc.",
          "status": "RECRUITING",
          "city": "Las Vegas",
          "state": "Nevada",
          "zip": "89128",
          "country": "United States",
          "geoPoint": {
            "lat": 36.17497,
            "lon": -115.13722
          }
        },
        {
          "facility": "Advanced Heart Care LLC",
          "status": "COMPLETED",
          "city": "Bridgewater",
          "state": "New Jersey",
          "zip": "08807-3064",
          "country": "United States",
          "geoPoint": {
            "lat": 40.60079,
            "lon": -74.64815
          }
        },
        {
          "facility": "Heart House_Elmer",
          "status": "COMPLETED",
          "city": "Elmer",
          "state": "New Jersey",
          "zip": "08318",
          "country": "United States",
          "geoPoint": {
            "lat": 39.59511,
            "lon": -75.17018
          }
        },
        {
          "facility": "NJ Heart",
          "status": "NOT_YET_RECRUITING",
          "city": "Linden",
          "state": "New Jersey",
          "zip": "07036",
          "country": "United States",
          "geoPoint": {
            "lat": 40.62205,
            "lon": -74.24459
          }
        },
        {
          "facility": "NJ Heart",
          "status": "RECRUITING",
          "city": "Linden",
          "state": "New Jersey",
          "zip": "07036",
          "country": "United States",
          "geoPoint": {
            "lat": 40.62205,
            "lon": -74.24459
          }
        },
        {
          "facility": "Barnabas Health",
          "status": "COMPLETED",
          "city": "Livingston",
          "state": "New Jersey",
          "zip": "07039",
          "country": "United States",
          "geoPoint": {
            "lat": 40.79593,
            "lon": -74.31487
          }
        },
        {
          "facility": "Barnabas Health",
          "status": "RECRUITING",
          "city": "Livingston",
          "state": "New Jersey",
          "zip": "07039",
          "country": "United States",
          "geoPoint": {
            "lat": 40.79593,
            "lon": -74.31487
          }
        },
        {
          "facility": "Inspira Health",
          "status": "RECRUITING",
          "city": "Mullica Hill",
          "state": "New Jersey",
          "zip": "08062",
          "country": "United States",
          "geoPoint": {
            "lat": 39.73928,
            "lon": -75.22407
          }
        },
        {
          "facility": "Saint Michael's Med Ctr NJ",
          "status": "RECRUITING",
          "city": "Newark",
          "state": "New Jersey",
          "zip": "07102",
          "country": "United States",
          "geoPoint": {
            "lat": 40.73566,
            "lon": -74.17237
          }
        },
        {
          "facility": "Saint Michael's Med Ctr NJ",
          "status": "NOT_YET_RECRUITING",
          "city": "Newark",
          "state": "New Jersey",
          "zip": "07102",
          "country": "United States",
          "geoPoint": {
            "lat": 40.73566,
            "lon": -74.17237
          }
        },
        {
          "facility": "The Valley Hosptial",
          "status": "COMPLETED",
          "city": "Ridgewood",
          "state": "New Jersey",
          "zip": "07450",
          "country": "United States",
          "geoPoint": {
            "lat": 40.97926,
            "lon": -74.11653
          }
        },
        {
          "facility": "The Valley Hosptial",
          "status": "NOT_YET_RECRUITING",
          "city": "Ridgewood",
          "state": "New Jersey",
          "zip": "07450",
          "country": "United States",
          "geoPoint": {
            "lat": 40.97926,
            "lon": -74.11653
          }
        },
        {
          "facility": "Capital Cardiology Associates_Albany",
          "status": "RECRUITING",
          "city": "Albany",
          "state": "New York",
          "zip": "12211",
          "country": "United States",
          "geoPoint": {
            "lat": 42.65258,
            "lon": -73.75623
          }
        },
        {
          "facility": "University at Buffalo_Erie County Med Ctr",
          "status": "COMPLETED",
          "city": "Buffalo",
          "state": "New York",
          "zip": "14215",
          "country": "United States",
          "geoPoint": {
            "lat": 42.88645,
            "lon": -78.87837
          }
        },
        {
          "facility": "Marian David, MD, PC",
          "status": "COMPLETED",
          "city": "Kew Gardens",
          "state": "New York",
          "zip": "11415",
          "country": "United States",
          "geoPoint": {
            "lat": 40.71427,
            "lon": -73.83097
          }
        },
        {
          "facility": "Mount Sinai Hosp at NYC",
          "status": "RECRUITING",
          "city": "New York",
          "state": "New York",
          "zip": "10019",
          "country": "United States",
          "geoPoint": {
            "lat": 40.71427,
            "lon": -74.00597
          }
        },
        {
          "facility": "NY Presbyt Hosp-W Cornell Med",
          "status": "RECRUITING",
          "city": "New York",
          "state": "New York",
          "zip": "10021",
          "country": "United States",
          "geoPoint": {
            "lat": 40.71427,
            "lon": -74.00597
          }
        },
        {
          "facility": "Mount Sinai Hosp at NYC",
          "status": "RECRUITING",
          "city": "New York",
          "state": "New York",
          "zip": "10029",
          "country": "United States",
          "geoPoint": {
            "lat": 40.71427,
            "lon": -74.00597
          }
        },
        {
          "facility": "Harlem Cardiology_Madison ave",
          "status": "COMPLETED",
          "city": "New York",
          "state": "New York",
          "zip": "10035",
          "country": "United States",
          "geoPoint": {
            "lat": 40.71427,
            "lon": -74.00597
          }
        },
        {
          "facility": "Laurelton Heart Specialist PC",
          "status": "RECRUITING",
          "city": "Rosedale",
          "state": "New York",
          "zip": "11422",
          "country": "United States",
          "geoPoint": {
            "lat": 40.66205,
            "lon": -73.73541
          }
        },
        {
          "facility": "Saratoga Clinical Research",
          "status": "RECRUITING",
          "city": "Saratoga Springs",
          "state": "New York",
          "zip": "12866",
          "country": "United States",
          "geoPoint": {
            "lat": 43.08313,
            "lon": -73.78457
          }
        },
        {
          "facility": "Stony Brook University Hospital",
          "status": "RECRUITING",
          "city": "Stony Brook",
          "state": "New York",
          "zip": "11794",
          "country": "United States",
          "geoPoint": {
            "lat": 40.92565,
            "lon": -73.14094
          }
        },
        {
          "facility": "Chear Center LLC",
          "status": "RECRUITING",
          "city": "The Bronx",
          "state": "New York",
          "zip": "10455",
          "country": "United States",
          "geoPoint": {
            "lat": 40.84985,
            "lon": -73.86641
          }
        },
        {
          "facility": "UNC Cardiology Outpatient Ctr",
          "status": "COMPLETED",
          "city": "Chapel Hill",
          "state": "North Carolina",
          "zip": "27599",
          "country": "United States",
          "geoPoint": {
            "lat": 35.9132,
            "lon": -79.05584
          }
        },
        {
          "facility": "Hawthorne Health NC",
          "status": "NOT_YET_RECRUITING",
          "city": "Concord",
          "state": "North Carolina",
          "zip": "28025",
          "country": "United States",
          "geoPoint": {
            "lat": 35.40888,
            "lon": -80.58158
          }
        },
        {
          "facility": "Duke University",
          "status": "RECRUITING",
          "city": "Durham",
          "state": "North Carolina",
          "zip": "27710",
          "country": "United States",
          "geoPoint": {
            "lat": 35.99403,
            "lon": -78.89862
          }
        },
        {
          "facility": "Medication Mgmnt, LLC_Grnsboro",
          "status": "RECRUITING",
          "city": "Greensboro",
          "state": "North Carolina",
          "zip": "27405",
          "country": "United States",
          "geoPoint": {
            "lat": 36.07264,
            "lon": -79.79198
          }
        },
        {
          "facility": "Duke University/Southeastern",
          "status": "COMPLETED",
          "city": "Lumberton",
          "state": "North Carolina",
          "zip": "28358",
          "country": "United States",
          "geoPoint": {
            "lat": 34.61834,
            "lon": -79.01045
          }
        },
        {
          "facility": "Duke University/Southeastern",
          "status": "NOT_YET_RECRUITING",
          "city": "Lumberton",
          "state": "North Carolina",
          "zip": "28358",
          "country": "United States",
          "geoPoint": {
            "lat": 34.61834,
            "lon": -79.01045
          }
        },
        {
          "facility": "Carteret Medical Group",
          "status": "RECRUITING",
          "city": "Morehead City",
          "state": "North Carolina",
          "zip": "28557",
          "country": "United States",
          "geoPoint": {
            "lat": 34.72294,
            "lon": -76.72604
          }
        },
        {
          "facility": "UNC Rex Healthcare",
          "status": "RECRUITING",
          "city": "Raleigh",
          "state": "North Carolina",
          "zip": "27607",
          "country": "United States",
          "geoPoint": {
            "lat": 35.7721,
            "lon": -78.63861
          }
        },
        {
          "facility": "Aultman Hospital",
          "status": "RECRUITING",
          "city": "Canton",
          "state": "Ohio",
          "zip": "44710",
          "country": "United States",
          "geoPoint": {
            "lat": 40.79895,
            "lon": -81.37845
          }
        },
        {
          "facility": "K&R Research Llc",
          "status": "RECRUITING",
          "city": "Marion",
          "state": "Ohio",
          "zip": "43302",
          "country": "United States",
          "geoPoint": {
            "lat": 40.58867,
            "lon": -83.12852
          }
        },
        {
          "facility": "Rama Research LLC",
          "status": "RECRUITING",
          "city": "Marion",
          "state": "Ohio",
          "zip": "43302",
          "country": "United States",
          "geoPoint": {
            "lat": 40.58867,
            "lon": -83.12852
          }
        },
        {
          "facility": "South Oklahoma Heart Research, LLC",
          "status": "RECRUITING",
          "city": "Oklahoma City",
          "state": "Oklahoma",
          "zip": "73135",
          "country": "United States",
          "geoPoint": {
            "lat": 35.46756,
            "lon": -97.51643
          }
        },
        {
          "facility": "Capital Area Research LLC",
          "status": "RECRUITING",
          "city": "Camp Hill",
          "state": "Pennsylvania",
          "zip": "17011",
          "country": "United States",
          "geoPoint": {
            "lat": 40.23981,
            "lon": -76.91997
          }
        },
        {
          "facility": "Penn State Hlth Holy Spirit Med Ctr",
          "status": "RECRUITING",
          "city": "Camp Hill",
          "state": "Pennsylvania",
          "zip": "17011",
          "country": "United States",
          "geoPoint": {
            "lat": 40.23981,
            "lon": -76.91997
          }
        },
        {
          "facility": "Geisinger Medical Center",
          "status": "RECRUITING",
          "city": "Danville",
          "state": "Pennsylvania",
          "zip": "17822",
          "country": "United States",
          "geoPoint": {
            "lat": 40.96342,
            "lon": -76.61273
          }
        },
        {
          "facility": "Penn State Hershey Medical Center",
          "status": "COMPLETED",
          "city": "Hershey",
          "state": "Pennsylvania",
          "zip": "17033",
          "country": "United States",
          "geoPoint": {
            "lat": 40.28592,
            "lon": -76.65025
          }
        },
        {
          "facility": "Heart Grp_ Lancaster Gen Hlth",
          "status": "COMPLETED",
          "city": "Lancaster",
          "state": "Pennsylvania",
          "zip": "17603",
          "country": "United States",
          "geoPoint": {
            "lat": 40.03788,
            "lon": -76.30551
          }
        },
        {
          "facility": "Thomas Jefferson University_Philadelphia",
          "status": "RECRUITING",
          "city": "Philadelphia",
          "state": "Pennsylvania",
          "zip": "19114",
          "country": "United States",
          "geoPoint": {
            "lat": 39.95238,
            "lon": -75.16362
          }
        },
        {
          "facility": "Allegheny Health Network",
          "status": "COMPLETED",
          "city": "Pittsburgh",
          "state": "Pennsylvania",
          "zip": "15212",
          "country": "United States",
          "geoPoint": {
            "lat": 40.44062,
            "lon": -79.99589
          }
        },
        {
          "facility": "Penn State Health-Berks Cardiology",
          "status": "RECRUITING",
          "city": "Wyomissing",
          "state": "Pennsylvania",
          "zip": "19610",
          "country": "United States",
          "geoPoint": {
            "lat": 40.32954,
            "lon": -75.96521
          }
        },
        {
          "facility": "Prisma Health-Midlands",
          "status": "COMPLETED",
          "city": "Columbia",
          "state": "South Carolina",
          "zip": "29203",
          "country": "United States",
          "geoPoint": {
            "lat": 34.00071,
            "lon": -81.03481
          }
        },
        {
          "facility": "Monument Health Clinical Rsrch",
          "status": "RECRUITING",
          "city": "Rapid City",
          "state": "South Dakota",
          "zip": "57701",
          "country": "United States",
          "geoPoint": {
            "lat": 44.08054,
            "lon": -103.23101
          }
        },
        {
          "facility": "Sanford Health_Sioux Falls",
          "status": "COMPLETED",
          "city": "Sioux Falls",
          "state": "South Dakota",
          "zip": "57117",
          "country": "United States",
          "geoPoint": {
            "lat": 43.54369,
            "lon": -96.72796
          }
        },
        {
          "facility": "Sanford Health_Sioux Falls",
          "status": "RECRUITING",
          "city": "Sioux Falls",
          "state": "South Dakota",
          "zip": "57117",
          "country": "United States",
          "geoPoint": {
            "lat": 43.54369,
            "lon": -96.72796
          }
        },
        {
          "facility": "Apex Research Foundation, LLC",
          "status": "RECRUITING",
          "city": "Jackson",
          "state": "Tennessee",
          "zip": "38301",
          "country": "United States",
          "geoPoint": {
            "lat": 35.61452,
            "lon": -88.81395
          }
        },
        {
          "facility": "The Jackson Clinic, PA",
          "status": "RECRUITING",
          "city": "Jackson",
          "state": "Tennessee",
          "zip": "38305",
          "country": "United States",
          "geoPoint": {
            "lat": 35.61452,
            "lon": -88.81395
          }
        },
        {
          "facility": "Tennova HC Turkey Creek MC",
          "status": "RECRUITING",
          "city": "Knoxville",
          "state": "Tennessee",
          "zip": "37934",
          "country": "United States",
          "geoPoint": {
            "lat": 35.96064,
            "lon": -83.92074
          }
        },
        {
          "facility": "Heart MD_Allen TX",
          "status": "RECRUITING",
          "city": "Allen",
          "state": "Texas",
          "zip": "75013",
          "country": "United States",
          "geoPoint": {
            "lat": 33.10317,
            "lon": -96.67055
          }
        },
        {
          "facility": "PharmaTex Research, LLC",
          "status": "RECRUITING",
          "city": "Amarillo",
          "state": "Texas",
          "zip": "79106",
          "country": "United States",
          "geoPoint": {
            "lat": 35.222,
            "lon": -101.8313
          }
        },
        {
          "facility": "Austin Heart",
          "status": "RECRUITING",
          "city": "Austin",
          "state": "Texas",
          "zip": "78756",
          "country": "United States",
          "geoPoint": {
            "lat": 30.26715,
            "lon": -97.74306
          }
        },
        {
          "facility": "UTD SW Medical Center-Dallas",
          "status": "RECRUITING",
          "city": "Dallas",
          "state": "Texas",
          "zip": "75390",
          "country": "United States",
          "geoPoint": {
            "lat": 32.78306,
            "lon": -96.80667
          }
        },
        {
          "facility": "Dallas Heart and Vascular",
          "status": "RECRUITING",
          "city": "Duncanville",
          "state": "Texas",
          "zip": "75137",
          "country": "United States",
          "geoPoint": {
            "lat": 32.6518,
            "lon": -96.90834
          }
        },
        {
          "facility": "David Turbay, MD, PLLC",
          "status": "RECRUITING",
          "city": "El Paso",
          "state": "Texas",
          "zip": "79905",
          "country": "United States",
          "geoPoint": {
            "lat": 31.75872,
            "lon": -106.48693
          }
        },
        {
          "facility": "Biopharma Informatic_Houston",
          "status": "RECRUITING",
          "city": "Houston",
          "state": "Texas",
          "zip": "77025",
          "country": "United States",
          "geoPoint": {
            "lat": 29.76328,
            "lon": -95.36327
          }
        },
        {
          "facility": "Houston Methodist Hospital",
          "status": "RECRUITING",
          "city": "Houston",
          "state": "Texas",
          "zip": "77030-2703",
          "country": "United States",
          "geoPoint": {
            "lat": 29.76328,
            "lon": -95.36327
          }
        },
        {
          "facility": "Houston Methodist Hospital",
          "status": "NOT_YET_RECRUITING",
          "city": "Houston",
          "state": "Texas",
          "zip": "77030",
          "country": "United States",
          "geoPoint": {
            "lat": 29.76328,
            "lon": -95.36327
          }
        },
        {
          "facility": "Texas Heart Inst Medical Ctr",
          "status": "COMPLETED",
          "city": "Houston",
          "state": "Texas",
          "zip": "77030",
          "country": "United States",
          "geoPoint": {
            "lat": 29.76328,
            "lon": -95.36327
          }
        },
        {
          "facility": "UT Physicians - Houston Medical Center",
          "status": "COMPLETED",
          "city": "Houston",
          "state": "Texas",
          "zip": "77030",
          "country": "United States",
          "geoPoint": {
            "lat": 29.76328,
            "lon": -95.36327
          }
        },
        {
          "facility": "Card Specialists of Willowbrook",
          "status": "RECRUITING",
          "city": "Houston",
          "state": "Texas",
          "zip": "77070",
          "country": "United States",
          "geoPoint": {
            "lat": 29.76328,
            "lon": -95.36327
          }
        },
        {
          "facility": "Texas Institute of Cardiology PA",
          "status": "RECRUITING",
          "city": "McKinney",
          "state": "Texas",
          "zip": "75071",
          "country": "United States",
          "geoPoint": {
            "lat": 33.19762,
            "lon": -96.61527
          }
        },
        {
          "facility": "Clinical Advancement Center",
          "status": "RECRUITING",
          "city": "San Antonio",
          "state": "Texas",
          "zip": "78212",
          "country": "United States",
          "geoPoint": {
            "lat": 29.42412,
            "lon": -98.49363
          }
        },
        {
          "facility": "Audie L. Murphy VA Hospital",
          "status": "COMPLETED",
          "city": "San Antonio",
          "state": "Texas",
          "zip": "78229",
          "country": "United States",
          "geoPoint": {
            "lat": 29.42412,
            "lon": -98.49363
          }
        },
        {
          "facility": "Sherman Clinical Research",
          "status": "RECRUITING",
          "city": "Sherman",
          "state": "Texas",
          "zip": "75092",
          "country": "United States",
          "geoPoint": {
            "lat": 33.63566,
            "lon": -96.60888
          }
        },
        {
          "facility": "University of Vermont Medical Center",
          "status": "RECRUITING",
          "city": "Burlington",
          "state": "Vermont",
          "zip": "05401",
          "country": "United States",
          "geoPoint": {
            "lat": 44.47588,
            "lon": -73.21207
          }
        },
        {
          "facility": "University of Virginia",
          "status": "RECRUITING",
          "city": "Charlottesville",
          "state": "Virginia",
          "zip": "22908",
          "country": "United States",
          "geoPoint": {
            "lat": 38.02931,
            "lon": -78.47668
          }
        },
        {
          "facility": "James River Cardiology",
          "status": "RECRUITING",
          "city": "Chesterfield",
          "state": "Virginia",
          "zip": "23832",
          "country": "United States",
          "geoPoint": {
            "lat": 37.37709,
            "lon": -77.50582
          }
        },
        {
          "facility": "Virginia Heart",
          "status": "COMPLETED",
          "city": "Falls Church",
          "state": "Virginia",
          "zip": "22042",
          "country": "United States",
          "geoPoint": {
            "lat": 38.88233,
            "lon": -77.17109
          }
        },
        {
          "facility": "Carient Heart and Vascular",
          "status": "RECRUITING",
          "city": "Manassas",
          "state": "Virginia",
          "zip": "20109",
          "country": "United States",
          "geoPoint": {
            "lat": 38.75095,
            "lon": -77.47527
          }
        },
        {
          "facility": "York Clinical Research LLC",
          "status": "RECRUITING",
          "city": "Norfolk",
          "state": "Virginia",
          "zip": "23504",
          "country": "United States",
          "geoPoint": {
            "lat": 36.84681,
            "lon": -76.28522
          }
        },
        {
          "facility": "Sentara Health Research Center",
          "status": "RECRUITING",
          "city": "Norfolk",
          "state": "Virginia",
          "zip": "23507",
          "country": "United States",
          "geoPoint": {
            "lat": 36.84681,
            "lon": -76.28522
          }
        },
        {
          "facility": "Virginia Commonwealth University",
          "status": "COMPLETED",
          "city": "Richmond",
          "state": "Virginia",
          "zip": "23298",
          "country": "United States",
          "geoPoint": {
            "lat": 37.55376,
            "lon": -77.46026
          }
        },
        {
          "facility": "Roanoke Heart Institute",
          "status": "COMPLETED",
          "city": "Roanoke",
          "state": "Virginia",
          "zip": "24014",
          "country": "United States",
          "geoPoint": {
            "lat": 37.27097,
            "lon": -79.94143
          }
        },
        {
          "facility": "VA Medical Center_Salem",
          "status": "RECRUITING",
          "city": "Salem",
          "state": "Virginia",
          "zip": "24153-6404",
          "country": "United States",
          "geoPoint": {
            "lat": 37.29347,
            "lon": -80.05476
          }
        },
        {
          "facility": "Selma Medical Associates",
          "status": "COMPLETED",
          "city": "Winchester",
          "state": "Virginia",
          "zip": "22601-3834",
          "country": "United States",
          "geoPoint": {
            "lat": 39.18566,
            "lon": -78.16333
          }
        },
        {
          "facility": "Selma Medical Associates",
          "status": "RECRUITING",
          "city": "Winchester",
          "state": "Virginia",
          "zip": "22601-3834",
          "country": "United States",
          "geoPoint": {
            "lat": 39.18566,
            "lon": -78.16333
          }
        },
        {
          "facility": "Valley Health Link",
          "status": "RECRUITING",
          "city": "Winchester",
          "state": "Virginia",
          "zip": "22601",
          "country": "United States",
          "geoPoint": {
            "lat": 39.18566,
            "lon": -78.16333
          }
        },
        {
          "facility": "Virginia Mason Medical Center",
          "status": "COMPLETED",
          "city": "Seattle",
          "state": "Washington",
          "zip": "98101",
          "country": "United States",
          "geoPoint": {
            "lat": 47.60621,
            "lon": -122.33207
          }
        },
        {
          "facility": "Swedish Medical Center_Seattle",
          "status": "RECRUITING",
          "city": "Seattle",
          "state": "Washington",
          "zip": "98122-5789",
          "country": "United States",
          "geoPoint": {
            "lat": 47.60621,
            "lon": -122.33207
          }
        },
        {
          "facility": "Swedish Medical Center_Seattle",
          "status": "NOT_YET_RECRUITING",
          "city": "Seattle",
          "state": "Washington",
          "zip": "98122-5789",
          "country": "United States",
          "geoPoint": {
            "lat": 47.60621,
            "lon": -122.33207
          }
        },
        {
          "facility": "Providence Med Research Ctr",
          "status": "RECRUITING",
          "city": "Spokane",
          "state": "Washington",
          "zip": "99204",
          "country": "United States",
          "geoPoint": {
            "lat": 47.65966,
            "lon": -117.42908
          }
        },
        {
          "facility": "WVU Heart & Vascular Institute",
          "status": "COMPLETED",
          "city": "Morgantown",
          "state": "West Virginia",
          "zip": "26506",
          "country": "United States",
          "geoPoint": {
            "lat": 39.62953,
            "lon": -79.9559
          }
        },
        {
          "facility": "William S Middleton Mem VA Hosp",
          "status": "RECRUITING",
          "city": "Madison",
          "state": "Wisconsin",
          "zip": "53705",
          "country": "United States",
          "geoPoint": {
            "lat": 43.07305,
            "lon": -89.40123
          }
        },
        {
          "facility": "Aurora St. Luke's Medi Ctr",
          "status": "COMPLETED",
          "city": "Milwaukee",
          "state": "Wisconsin",
          "zip": "53215",
          "country": "United States",
          "geoPoint": {
            "lat": 43.0389,
            "lon": -87.90647
          }
        },
        {
          "facility": "Mautalen Salud e investigación",
          "status": "ACTIVE_NOT_RECRUITING",
          "city": "CABA",
          "state": "Buenos Aires",
          "zip": "C1128 AAF",
          "country": "Argentina"
        },
        {
          "facility": "Mautalen Salud e investigación",
          "status": "RECRUITING",
          "city": "CABA",
          "state": "Buenos Aires",
          "zip": "C1128 AAF",
          "country": "Argentina"
        },
        {
          "facility": "CEMEDIC",
          "status": "ACTIVE_NOT_RECRUITING",
          "city": "CABA",
          "state": "Buenos Aires",
          "zip": "C1440CFD",
          "country": "Argentina"
        },
        {
          "facility": "Centro de Investigaciones Médicas Clínica de Fracturas y Or",
          "status": "RECRUITING",
          "city": "Mar del Plata",
          "state": "Buenos Aires",
          "zip": "B7600GNY",
          "country": "Argentina",
          "geoPoint": {
            "lat": -38.00042,
            "lon": -57.5562
          }
        },
        {
          "facility": "Centro de Investigaciones Médicas Mar del Plata",
          "status": "ACTIVE_NOT_RECRUITING",
          "city": "Mar del Plata",
          "state": "Buenos Aires",
          "zip": "B7600GNY",
          "country": "Argentina",
          "geoPoint": {
            "lat": -38.00042,
            "lon": -57.5562
          }
        },
        {
          "facility": "Fundacion Favaloro",
          "status": "ACTIVE_NOT_RECRUITING",
          "city": "CABA",
          "state": "Buenos Aires, Argentina",
          "zip": "C1093AAS",
          "country": "Argentina"
        },
        {
          "facility": "Centro de Investigaciones Clinica Baigorria",
          "status": "RECRUITING",
          "city": "Granadero Baigorria",
          "state": "Santa Fe Province",
          "zip": "2152",
          "country": "Argentina",
          "geoPoint": {
            "lat": -32.85683,
            "lon": -60.71754
          }
        },
        {
          "facility": "Centro de Investigaciones Clinica Baigorria",
          "status": "ACTIVE_NOT_RECRUITING",
          "city": "Santa Fé",
          "state": "Santa Fe Province",
          "zip": "2152",
          "country": "Argentina"
        },
        {
          "facility": "DIM Clinica Privada",
          "status": "ACTIVE_NOT_RECRUITING",
          "city": "Buenos Aires",
          "zip": "B1704ETD",
          "country": "Argentina",
          "geoPoint": {
            "lat": -34.61315,
            "lon": -58.37723
          }
        },
        {
          "facility": "DIM Clinica Privada",
          "status": "RECRUITING",
          "city": "Buenos Aires",
          "zip": "B1704ETD",
          "country": "Argentina",
          "geoPoint": {
            "lat": -34.61315,
            "lon": -58.37723
          }
        },
        {
          "facility": "Hospital Italiano",
          "status": "ACTIVE_NOT_RECRUITING",
          "city": "Buenos Aires",
          "zip": "C1181ACH",
          "country": "Argentina",
          "geoPoint": {
            "lat": -34.61315,
            "lon": -58.37723
          }
        },
        {
          "facility": "Hospital Italiano",
          "status": "RECRUITING",
          "city": "Buenos Aires",
          "zip": "C1181ACH",
          "country": "Argentina",
          "geoPoint": {
            "lat": -34.61315,
            "lon": -58.37723
          }
        },
        {
          "facility": "Fundación Respirar",
          "status": "ACTIVE_NOT_RECRUITING",
          "city": "Buenos Aires",
          "zip": "C1426ABP",
          "country": "Argentina",
          "geoPoint": {
            "lat": -34.61315,
            "lon": -58.37723
          }
        },
        {
          "facility": "Fundacion Favaloro",
          "status": "RECRUITING",
          "city": "CABA",
          "zip": "C1093AAS",
          "country": "Argentina"
        },
        {
          "facility": "Fundacion Favaloro",
          "status": "NOT_YET_RECRUITING",
          "city": "CABA",
          "zip": "C1093AAS",
          "country": "Argentina"
        },
        {
          "facility": "CEMEDIC",
          "status": "RECRUITING",
          "city": "CABA",
          "zip": "C1440CFD",
          "country": "Argentina"
        },
        {
          "facility": "Instituto de Cardiología de Corrientes",
          "status": "ACTIVE_NOT_RECRUITING",
          "city": "Corrientes",
          "zip": "W3400AMZ",
          "country": "Argentina",
          "geoPoint": {
            "lat": -27.46784,
            "lon": -58.8344
          }
        },
        {
          "facility": "Instituto de Cardiología de Corrientes",
          "status": "RECRUITING",
          "city": "Corrientes",
          "zip": "W3400AMZ",
          "country": "Argentina",
          "geoPoint": {
            "lat": -27.46784,
            "lon": -58.8344
          }
        },
        {
          "facility": "Instituto de Investigaciones Clinicas Mar Del Plata",
          "status": "ACTIVE_NOT_RECRUITING",
          "city": "Mar del Plata",
          "zip": "B7600FZN",
          "country": "Argentina",
          "geoPoint": {
            "lat": -38.00042,
            "lon": -57.5562
          }
        },
        {
          "facility": "Instituto de Investigaciones Clinicas",
          "status": "RECRUITING",
          "city": "Mar del Plata",
          "zip": "B7600FZN",
          "country": "Argentina",
          "geoPoint": {
            "lat": -38.00042,
            "lon": -57.5562
          }
        },
        {
          "facility": "Centro de Investigaciones Médicas Clínica de Fracturas y Or",
          "status": "RECRUITING",
          "city": "Mar del Plata",
          "zip": "B7600GNY",
          "country": "Argentina",
          "geoPoint": {
            "lat": -38.00042,
            "lon": -57.5562
          }
        },
        {
          "facility": "Instituto de Investigaciones Clinicas San Nicolás",
          "status": "ACTIVE_NOT_RECRUITING",
          "city": "San Nicolás",
          "zip": "B2900",
          "country": "Argentina",
          "geoPoint": {
            "lat": -31.43628,
            "lon": -64.45288
          }
        },
        {
          "facility": "Instituto de Investigaciones Clinicas San Nicolás",
          "status": "RECRUITING",
          "city": "San Nicolás",
          "zip": "B2900",
          "country": "Argentina",
          "geoPoint": {
            "lat": -31.43628,
            "lon": -64.45288
          }
        },
        {
          "facility": "Centro de investigaciones Clinicas del Litoral",
          "status": "ACTIVE_NOT_RECRUITING",
          "city": "Santa Fe",
          "zip": "3000",
          "country": "Argentina",
          "geoPoint": {
            "lat": -31.64881,
            "lon": -60.70868
          }
        },
        {
          "facility": "Centro de investigaciones Clinicas del Litoral",
          "status": "RECRUITING",
          "city": "Santa Fe",
          "zip": "3000",
          "country": "Argentina",
          "geoPoint": {
            "lat": -31.64881,
            "lon": -60.70868
          }
        },
        {
          "facility": "CEDIR - Centro de diagnóstico y rehabilitación Santa Fe",
          "status": "COMPLETED",
          "city": "Santa Fe",
          "zip": "S3000FSO",
          "country": "Argentina",
          "geoPoint": {
            "lat": -31.64881,
            "lon": -60.70868
          }
        },
        {
          "facility": "Canberra Hospital",
          "status": "ACTIVE_NOT_RECRUITING",
          "city": "Garran",
          "state": "Australian Capital Territory",
          "zip": "2605",
          "country": "Australia",
          "geoPoint": {
            "lat": -35.34206,
            "lon": 149.10846
          }
        },
        {
          "facility": "Concord Repatriation General Hospital - Cardiology Department",
          "status": "ACTIVE_NOT_RECRUITING",
          "city": "Concord",
          "state": "New South Wales",
          "zip": "2139",
          "country": "Australia",
          "geoPoint": {
            "lat": -33.84722,
            "lon": 151.10381
          }
        },
        {
          "facility": "Gosford Hospital",
          "status": "ACTIVE_NOT_RECRUITING",
          "city": "Gosford",
          "state": "New South Wales",
          "zip": "2250",
          "country": "Australia",
          "geoPoint": {
            "lat": -33.4244,
            "lon": 151.34399
          }
        },
        {
          "facility": "Sydney Cardiometabolic Centre",
          "status": "ACTIVE_NOT_RECRUITING",
          "city": "Liverpool",
          "state": "New South Wales",
          "zip": "2170",
          "country": "Australia",
          "geoPoint": {
            "lat": -33.91938,
            "lon": 150.92588
          }
        },
        {
          "facility": "Royal Brisbane and Women's Hospital",
          "status": "ACTIVE_NOT_RECRUITING",
          "city": "Brisbane",
          "state": "Queensland",
          "zip": "4029",
          "country": "Australia",
          "geoPoint": {
            "lat": -27.46794,
            "lon": 153.02809
          }
        },
        {
          "facility": "Royal Brisbane and Women's Hospital",
          "status": "RECRUITING",
          "city": "Brisbane",
          "state": "Queensland",
          "zip": "4029",
          "country": "Australia",
          "geoPoint": {
            "lat": -27.46794,
            "lon": 153.02809
          }
        },
        {
          "facility": "Heart of Australia",
          "status": "ACTIVE_NOT_RECRUITING",
          "city": "Chelmer",
          "state": "Queensland",
          "zip": "4068",
          "country": "Australia",
          "geoPoint": {
            "lat": -27.51326,
            "lon": 152.97524
          }
        },
        {
          "facility": "Townsville University Hospital",
          "status": "ACTIVE_NOT_RECRUITING",
          "city": "Douglas",
          "state": "Queensland",
          "zip": "4814",
          "country": "Australia",
          "geoPoint": {
            "lat": -19.32394,
            "lon": 146.75234
          }
        },
        {
          "facility": "Nightingale Research",
          "status": "ACTIVE_NOT_RECRUITING",
          "city": "Adelaide",
          "state": "South Australia",
          "zip": "5000",
          "country": "Australia",
          "geoPoint": {
            "lat": -34.92866,
            "lon": 138.59863
          }
        },
        {
          "facility": "Royal Adelaide Hospital Cardiovascular Clinical Trials",
          "status": "ACTIVE_NOT_RECRUITING",
          "city": "Adelaide",
          "state": "South Australia",
          "zip": "5000",
          "country": "Australia",
          "geoPoint": {
            "lat": -34.92866,
            "lon": 138.59863
          }
        },
        {
          "facility": "Flinders Medical Centre",
          "status": "ACTIVE_NOT_RECRUITING",
          "city": "Bedford Park",
          "state": "South Australia",
          "zip": "5042",
          "country": "Australia",
          "geoPoint": {
            "lat": -35.02204,
            "lon": 138.56815
          }
        },
        {
          "facility": "Royal Hobart Hospital",
          "status": "ACTIVE_NOT_RECRUITING",
          "city": "Hobart",
          "state": "Tasmania",
          "zip": "7000",
          "country": "Australia",
          "geoPoint": {
            "lat": -42.87936,
            "lon": 147.32941
          }
        },
        {
          "facility": "Royal Hobart Hospital",
          "status": "RECRUITING",
          "city": "Hobart",
          "state": "Tasmania",
          "zip": "7000",
          "country": "Australia",
          "geoPoint": {
            "lat": -42.87936,
            "lon": 147.32941
          }
        },
        {
          "facility": "Frankston Hospital",
          "status": "ACTIVE_NOT_RECRUITING",
          "city": "Frankston",
          "state": "Victoria",
          "zip": "3199",
          "country": "Australia",
          "geoPoint": {
            "lat": -38.14458,
            "lon": 145.12291
          }
        },
        {
          "facility": "Frankston Hospital",
          "status": "RECRUITING",
          "city": "Frankston",
          "state": "Victoria",
          "zip": "3199",
          "country": "Australia",
          "geoPoint": {
            "lat": -38.14458,
            "lon": 145.12291
          }
        },
        {
          "facility": "Adrian Costa Clinical Trials Centre",
          "status": "ACTIVE_NOT_RECRUITING",
          "city": "Geelong",
          "state": "Victoria",
          "zip": "3220",
          "country": "Australia",
          "geoPoint": {
            "lat": -38.14711,
            "lon": 144.36069
          }
        },
        {
          "facility": "Barwon Health (The Geelong Hospital)",
          "status": "RECRUITING",
          "city": "Geelong",
          "state": "Victoria",
          "zip": "3220",
          "country": "Australia",
          "geoPoint": {
            "lat": -38.14711,
            "lon": 144.36069
          }
        },
        {
          "facility": "HeartWest Cardiology - Hoppers Crossing",
          "status": "COMPLETED",
          "city": "Hoppers Crossing",
          "state": "Victoria",
          "zip": "3029",
          "country": "Australia",
          "geoPoint": {
            "lat": -37.88264,
            "lon": 144.7003
          }
        },
        {
          "facility": "Epworth HealthCare",
          "status": "COMPLETED",
          "city": "Richmond",
          "state": "Victoria",
          "zip": "3121",
          "country": "Australia",
          "geoPoint": {
            "lat": -37.81819,
            "lon": 145.00176
          }
        },
        {
          "facility": "Epworth HealthCare",
          "status": "WITHDRAWN",
          "city": "Richmond",
          "state": "Victoria",
          "zip": "3121",
          "country": "Australia",
          "geoPoint": {
            "lat": -37.81819,
            "lon": 145.00176
          }
        },
        {
          "facility": "Clinitrials",
          "status": "ACTIVE_NOT_RECRUITING",
          "city": "Perth",
          "state": "Western Australia",
          "zip": "6000",
          "country": "Australia",
          "geoPoint": {
            "lat": -31.95224,
            "lon": 115.8614
          }
        },
        {
          "facility": "Krankenhaus St. Josef Braunau",
          "status": "ACTIVE_NOT_RECRUITING",
          "city": "Braunau am Inn",
          "zip": "5280",
          "country": "Austria",
          "geoPoint": {
            "lat": 48.25628,
            "lon": 13.04343
          }
        },
        {
          "facility": "Krankenhaus St. Josef Braunau",
          "status": "NOT_YET_RECRUITING",
          "city": "Braunau am Inn",
          "zip": "A 5280",
          "country": "Austria",
          "geoPoint": {
            "lat": 48.25628,
            "lon": 13.04343
          }
        },
        {
          "facility": "Medizinische Universität Graz",
          "status": "ACTIVE_NOT_RECRUITING",
          "city": "Graz",
          "zip": "8036",
          "country": "Austria",
          "geoPoint": {
            "lat": 47.06733,
            "lon": 15.44197
          }
        },
        {
          "facility": "Medizinische Universität Graz",
          "status": "RECRUITING",
          "city": "Graz",
          "zip": "A 8036",
          "country": "Austria",
          "geoPoint": {
            "lat": 47.06733,
            "lon": 15.44197
          }
        },
        {
          "facility": "Fließer-Görzer [Ordination]",
          "status": "ACTIVE_NOT_RECRUITING",
          "city": "Saint Stefan",
          "zip": "8511",
          "country": "Austria"
        },
        {
          "facility": "Fließer-Görzer [Ordination]",
          "status": "NOT_YET_RECRUITING",
          "city": "Saint Stefan",
          "zip": "8511",
          "country": "Austria"
        },
        {
          "facility": "Uniklinikum Salzburg Kardiologie",
          "status": "ACTIVE_NOT_RECRUITING",
          "city": "Salzburg",
          "zip": "5020",
          "country": "Austria",
          "geoPoint": {
            "lat": 47.79941,
            "lon": 13.04399
          }
        },
        {
          "facility": "Medizinische Universität Wien",
          "status": "COMPLETED",
          "city": "Vienna",
          "zip": "1090",
          "country": "Austria",
          "geoPoint": {
            "lat": 48.20849,
            "lon": 16.37208
          }
        },
        {
          "facility": "Medizinische Universität Wien",
          "status": "NOT_YET_RECRUITING",
          "city": "Vienna",
          "zip": "1090",
          "country": "Austria",
          "geoPoint": {
            "lat": 48.20849,
            "lon": 16.37208
          }
        },
        {
          "facility": "Klinik Favoriten",
          "status": "COMPLETED",
          "city": "Vienna",
          "zip": "1100",
          "country": "Austria",
          "geoPoint": {
            "lat": 48.20849,
            "lon": 16.37208
          }
        },
        {
          "facility": "Klinik Favoriten",
          "status": "NOT_YET_RECRUITING",
          "city": "Vienna",
          "zip": "1100",
          "country": "Austria",
          "geoPoint": {
            "lat": 48.20849,
            "lon": 16.37208
          }
        },
        {
          "facility": "Klinik Ottakring",
          "status": "COMPLETED",
          "city": "Vienna",
          "zip": "1160",
          "country": "Austria",
          "geoPoint": {
            "lat": 48.20849,
            "lon": 16.37208
          }
        },
        {
          "facility": "Imed 19- privat",
          "status": "ACTIVE_NOT_RECRUITING",
          "city": "Vienna",
          "zip": "1190",
          "country": "Austria",
          "geoPoint": {
            "lat": 48.20849,
            "lon": 16.37208
          }
        },
        {
          "facility": "Imed 19- privat",
          "status": "NOT_YET_RECRUITING",
          "city": "Vienna",
          "zip": "A 1190",
          "country": "Austria",
          "geoPoint": {
            "lat": 48.20849,
            "lon": 16.37208
          }
        },
        {
          "facility": "AZORG Aalst - Moorselbaan",
          "status": "ACTIVE_NOT_RECRUITING",
          "city": "Aalst",
          "zip": "9300",
          "country": "Belgium",
          "geoPoint": {
            "lat": 50.93604,
            "lon": 4.0355
          }
        },
        {
          "facility": "UZ Brussel",
          "status": "ACTIVE_NOT_RECRUITING",
          "city": "Brussels",
          "zip": "1090",
          "country": "Belgium",
          "geoPoint": {
            "lat": 50.85045,
            "lon": 4.34878
          }
        },
        {
          "facility": "UZA - UZ Antwerpen - Cardiology Department",
          "status": "ACTIVE_NOT_RECRUITING",
          "city": "Edegem",
          "zip": "2650",
          "country": "Belgium",
          "geoPoint": {
            "lat": 51.15662,
            "lon": 4.44504
          }
        },
        {
          "facility": "Ziekenhuis Oost-Limburg AV - Cardiology",
          "status": "ACTIVE_NOT_RECRUITING",
          "city": "Genk",
          "zip": "3600",
          "country": "Belgium",
          "geoPoint": {
            "lat": 50.965,
            "lon": 5.50082
          }
        },
        {
          "facility": "AZ Groeninge - Kortrijk - Cardiology",
          "status": "ACTIVE_NOT_RECRUITING",
          "city": "Kortrijk",
          "zip": "8500",
          "country": "Belgium",
          "geoPoint": {
            "lat": 50.82803,
            "lon": 3.26487
          }
        },
        {
          "facility": "CHR de la Citadelle",
          "status": "ACTIVE_NOT_RECRUITING",
          "city": "Liège",
          "zip": "4000",
          "country": "Belgium",
          "geoPoint": {
            "lat": 50.63373,
            "lon": 5.56749
          }
        },
        {
          "facility": "University Clinical Centre of the Republic Srpska",
          "status": "ACTIVE_NOT_RECRUITING",
          "city": "Banja Luka",
          "zip": "78000",
          "country": "Bosnia and Herzegovina",
          "geoPoint": {
            "lat": 44.77879,
            "lon": 17.20629
          }
        },
        {
          "facility": "Dr. Abdulah Nakas General Hospital",
          "status": "ACTIVE_NOT_RECRUITING",
          "city": "Sarajevo",
          "zip": "71000",
          "country": "Bosnia and Herzegovina",
          "geoPoint": {
            "lat": 43.84864,
            "lon": 18.35644
          }
        },
        {
          "facility": "Dr. Abdulah Nakas General Hospital",
          "status": "RECRUITING",
          "city": "Sarajevo",
          "zip": "71000",
          "country": "Bosnia and Herzegovina",
          "geoPoint": {
            "lat": 43.84864,
            "lon": 18.35644
          }
        },
        {
          "facility": "University Clinical Centre Sarajevo",
          "status": "ACTIVE_NOT_RECRUITING",
          "city": "Sarajevo",
          "zip": "71000",
          "country": "Bosnia and Herzegovina",
          "geoPoint": {
            "lat": 43.84864,
            "lon": 18.35644
          }
        },
        {
          "facility": "Centro de Diag. e Pesquisa da Osteoporose do Espírito Santo",
          "status": "COMPLETED",
          "city": "Vitória",
          "state": "Espírito Santo",
          "zip": "29055-450",
          "country": "Brazil",
          "geoPoint": {
            "lat": -20.31944,
            "lon": -40.33778
          }
        },