{
  "protocolSection": {
    "identificationModule": {
      "nctId": "NCT00259038",
      "orgStudyIdInfo": {
        "id": "03-0-162"
      },
      "organization": {
        "fullName": "Daiichi Sankyo",
        "class": "INDUSTRY"
      },
      "briefTitle": "Evaluation of the Effects of Carperitide in Patients With Congestive Heart Failure",
      "officialTitle": "A Phase II, Dose Escalation Evaluation of the Pharmacokinetic and Hemodynamic Effects of Carperitide in Subjects With Congestive Heart Failure"
    },
    "statusModule": {
      "statusVerifiedDate": "2016-11",
      "overallStatus": "COMPLETED",
      "expandedAccessInfo": {
        "hasExpandedAccess": false
      },
      "startDateStruct": {
        "date": "2004-01"
      },
      "primaryCompletionDateStruct": {
        "date": "2006-02",
        "type": "ACTUAL"
      },
      "completionDateStruct": {
        "date": "2006-02",
        "type": "ACTUAL"
      },
      "studyFirstSubmitDate": "2005-11-28",
      "studyFirstSubmitQcDate": "2005-11-28",
      "studyFirstPostDateStruct": {
        "date": "2005-11-29",
        "type": "ESTIMATED"
      },
      "lastUpdateSubmitDate": "2016-11-04",
      "lastUpdatePostDateStruct": {
        "date": "2016-11-08",
        "type": "ESTIMATED"
      }
    },
    "sponsorCollaboratorsModule": {
      "responsibleParty": {
        "type": "SPONSOR"
      },
      "leadSponsor": {
        "name": "Daiichi Sankyo",
        "class": "INDUSTRY"
      }
    },
    "descriptionModule": {
      "briefSummary": "The study will evaluate the safety and efficacy of intravenous infusion of carperitide using pressure measurements inside the heart and great vessels and measuring carperitide concentration in the blood."
    },
    "conditionsModule": {
      "conditions": [
        "Heart Failure, Congestive",
        "Heart Decompensation",
        "Left Ventricular Failure",
        "Myocardiopathies",
        "Systolic or Diastolic Left Ventricular Dysfunction"
      ],
      "keywords": [
        "Carperitide",
        "Atrial Natriuretic Peptide",
        "Treatment efficacy",
        "Safety",
        "Heart failure, Congestive",
        "Pulmonary Artery Catheterization"
      ]
    },
    "designModule": {
      "studyType": "INTERVENTIONAL",
      "phases": [
        "PHASE2"
      ],
      "designInfo": {
        "allocation": "RANDOMIZED",
        "interventionModel": "PARALLEL",
        "primaryPurpose": "TREATMENT",
        "maskingInfo": {
          "masking": "DOUBLE",
          "whoMasked": [
            "PARTICIPANT",
            "INVESTIGATOR"
          ]
        }
      },
      "enrollmentInfo": {
        "count": 162,
        "type": "ACTUAL"
      }
    },
    "armsInterventionsModule": {
      "armGroups": [
        {
          "label": "Experimental Drug",
          "type": "EXPERIMENTAL",
          "interventionNames": [
            "Drug: Carperitide"
          ]
        },
        {
          "label": "Placebo",
          "type": "PLACEBO_COMPARATOR",
          "interventionNames": [
            "Drug: Placebo"
          ]
        }
      ],
      "interventions": [
        {
          "type": "DRUG",
          "name": "Carperitide",
          "armGroupLabels": [
            "Experimental Drug"
          ],
          "otherNames": [
            "human recombinant atrial natriuretic peptide"
          ]
        },
        {
          "type": "DRUG",
          "name": "Placebo",
          "armGroupLabels": [
            "Placebo"
          ]
        }
      ]
    },
    "outcomesModule": {
      "primaryOutcomes": [
        {
          "measure": "Change from baseline in pulmonary capillary wedge pressure (PCWP)",
          "timeFrame": "at 3 hours following initiation of study drug infusion"
        }
      ]
    },
    "eligibilityModule": {
      "eligibilityCriteria": "Inclusion Criteria:\n\n* Is hospitalized with congestive heart failure (CHF)\n* Has a Swan-Ganz catheter inserted for CHF management and has pulmonary capillary wedge pressure 18 mmHg or higher\n\nExclusion Criteria:\n\n* Has had a heart transplant\n* Requires mechanical ventilation or mechanical circulatory support",
      "healthyVolunteers": false,
      "sex": "ALL",
      "minimumAge": "18 Years",
      "stdAges": [
        "ADULT",
        "OLDER_ADULT"
      ]
    },
    "contactsLocationsModule": {
      "overallOfficials": [
        {
          "name": "Biljana Pavlovic-Surjancev, MD, PhD",
          "affiliation": "Astellas Pharma US, Inc.",
          "role": "STUDY_DIRECTOR"
        }
      ],
      "locations": [
        {
          "city": "Huntsville",
          "state": "Alabama",
          "zip": "35801",
          "country": "United States",
          "geoPoint": {
            "lat": 34.7304,
            "lon": -86.58594
          }
        },
        {
          "city": "Los Angeles",
          "state": "California",
          "zip": "90033",
          "country": "United States",
          "geoPoint": {
            "lat": 34.05223,
            "lon": -118.24368
          }
        },
        {
          "city": "Orange",
          "state": "California",
          "zip": "92868",
          "country": "United States",
          "geoPoint": {
            "lat": 33.78779,
            "lon": -117.85311
          }
        },
        {
          "city": "San Diego",
          "state": "California",
          "zip": "92103",
          "country": "United States",
          "geoPoint": {
            "lat": 32.71571,
            "lon": -117.16472
          }
        },
        {
          "city": "Bay Pines",
          "state": "Florida",
          "zip": "33744",
          "country": "United States",
          "geoPoint": {
            "lat": 27.81419,
            "lon": -82.77816
          }
        },
        {
          "city": "Gainesville",
          "state": "Florida",
          "zip": "32610",
          "country": "United States",
          "geoPoint": {
            "lat": 29.65163,
            "lon": -82.32483
          }
        },
        {
          "city": "Jacksonville",
          "state": "Florida",
          "zip": "32216",
          "country": "United States",
          "geoPoint": {
            "lat": 30.33218,
            "lon": -81.65565
          }
        },
        {
          "city": "Miami",
          "state": "Florida",
          "zip": "33136",
          "country": "United States",
          "geoPoint": {
            "lat": 25.77427,
            "lon": -80.19366
          }
        },
        {
          "city": "Orlando",
          "state": "Florida",
          "zip": "32803",
          "country": "United States",
          "geoPoint": {
            "lat": 28.53834,
            "lon": -81.37924
          }
        },
        {
          "city": "St. Petersburg",
          "state": "Florida",
          "zip": "33707",
          "country": "United States",
          "geoPoint": {
            "lat": 27.77086,
            "lon": -82.67927
          }
        },
        {
          "city": "Chicago",
          "state": "Illinois",
          "zip": "60611",
          "country": "United States",
          "geoPoint": {
            "lat": 41.85003,
            "lon": -87.65005
          }
        },
        {
          "city": "Chicago",
          "state": "Illinois",
          "zip": "60612",
          "country": "United States",
          "geoPoint": {
            "lat": 41.85003,
            "lon": -87.65005
          }
        },
        {
          "city": "Springfield",
          "state": "Illinois",
          "zip": "62701",
          "country": "United States",
          "geoPoint": {
            "lat": 39.80172,
            "lon": -89.64371
          }
        },
        {
          "city": "Covington",
          "state": "Louisiana",
          "zip": "70433",
          "country": "United States",
          "geoPoint": {
            "lat": 30.47549,
            "lon": -90.10042
          }
        },
        {
          "city": "Shreveport",
          "state": "Louisiana",
          "zip": "71103",
          "country": "United States",
          "geoPoint": {
            "lat": 32.52515,
            "lon": -93.75018
          }
        },
        {
          "city": "Baltimore",
          "state": "Maryland",
          "zip": "21201",
          "country": "United States",
          "geoPoint": {
            "lat": 39.29038,
            "lon": -76.61219
          }
        },
        {
          "city": "Minneapolis",
          "state": "Minnesota",
          "zip": "55455",
          "country": "United States",
          "geoPoint": {
            "lat": 44.97997,
            "lon": -93.26384
          }
        },
        {
          "city": "St Louis",
          "state": "Missouri",
          "zip": "63110",
          "country": "United States",
          "geoPoint": {
            "lat": 38.62727,
            "lon": -90.19789
          }
        },
        {
          "city": "Albany",
          "state": "New York",
          "country": "United States",
          "geoPoint": {
            "lat": 42.65258,
            "lon": -73.75623
          }
        },
        {
          "city": "Cincinnati",
          "state": "Ohio",
          "zip": "45267",
          "country": "United States",
          "geoPoint": {
            "lat": 39.12711,
            "lon": -84.51439
          }
        },
        {
          "city": "Cleveland",
          "state": "Ohio",
          "zip": "44195",
          "country": "United States",
          "geoPoint": {
            "lat": 41.4995,
            "lon": -81.69541
          }
        },
        {
          "city": "Tulsa",
          "state": "Oklahoma",
          "country": "United States",
          "geoPoint": {
            "lat": 36.15398,
            "lon": -95.99277
          }
        },
        {
          "city": "Charleston",
          "state": "South Carolina",
          "country": "United States",
          "geoPoint": {
            "lat": 32.77632,
            "lon": -79.93275
          }
        },
        {
          "city": "Columbia",
          "state": "South Carolina",
          "country": "United States",
          "geoPoint": {
            "lat": 34.00071,
            "lon": -81.03481
          }
        },
        {
          "city": "Amarillo",
          "state": "Texas",
          "zip": "79106",
          "country": "United States",
          "geoPoint": {
            "lat": 35.222,
            "lon": -101.8313
          }
        },
        {
          "city": "Houston",
          "state": "Texas",
          "zip": "77030",
          "country": "United States",
          "geoPoint": {
            "lat": 29.76328,
            "lon": -95.36327
          }
        },
        {
          "city": "Houston",
          "state": "Texas",
          "zip": "77225",
          "country": "United States",
          "geoPoint": {
            "lat": 29.76328,
            "lon": -95.36327
          }
        },
        {
          "city": "Richmond",
          "state": "Virginia",
          "zip": "23298",
          "country": "United States",
          "geoPoint": {
            "lat": 37.55376,
            "lon": -77.46026
          }
        },
        {
          "city": "Tacoma",
          "state": "Washington",
          "zip": "98405",
          "country": "United States",
          "geoPoint": {
            "lat": 47.25288,
            "lon": -122.44429
          }
        },
        {
          "city": "Madison",
          "state": "Wisconsin",
          "zip": "53792",
          "country": "United States",
          "geoPoint": {
            "lat": 43.07305,
            "lon": -89.40123
          }
        },
        {
          "city": "Halifax",
          "state": "Nova Scotia",
          "zip": "B3H 3A7",
          "country": "Canada",
          "geoPoint": {
            "lat": 44.64269,
            "lon": -63.57688
          }
        },
        {
          "city": "Toronto",
          "state": "Ontario",
          "zip": "M5G 1X5",
          "country": "Canada",
          "geoPoint": {
            "lat": 43.70643,
            "lon": -79.39864
          }
        },
        {
          "city": "Montreal",
          "state": "Quebec",
          "country": "Canada",
          "geoPoint": {
            "lat": 45.50884,
            "lon": -73.58781
          }
        },
        {
          "city": "Saint Foy",
          "state": "Quebec",
          "zip": "G1V 4G5",
          "country": "Canada"
        }
      ]
    }
  },
  "derivedSection": {
    "miscInfoModule": {
      "versionHolder": "2026-02-18"
    },
    "conditionBrowseModule": {
      "meshes": [
        {
          "id": "D006333",
          "term": "Heart Failure"
        },
        {
          "id": "D009202",
          "term": "Cardiomyopathies"
        },
        {
          "id": "D054160",
          "term": "Systolic Murmurs"
        },
        {
          "id": "D018487",
          "term": "Ventricular Dysfunction, Left"
        }
      ],
      "ancestors": [
        {
          "id": "D006331",
          "term": "Heart Diseases"
        },
        {
          "id": "D002318",
          "term": "Cardiovascular Diseases"
        },
        {
          "id": "D006337",
          "term": "Heart Murmurs"
        },
        {
          "id": "D012816",
          "term": "Signs and Symptoms"
        },
        {
          "id": "D013568",
          "term": "Pathological Conditions, Signs and Symptoms"
        },
        {
          "id": "D018754",
          "term": "Ventricular Dysfunction"
        }
      ]
    },
    "interventionBrowseModule": {
      "meshes": [
        {
          "id": "C472955",
          "term": "NPPA protein, human"
        }
      ]
    }
  },
  "hasResults": false
}